[
  {
    "id": 1,
    "name": "Michael Durand",
    "specialty": "Plombier",
    "category": "Construction",
    "city": "Lyon",
    "rating": 4,
    "description": "Spécialiste en plomberie générale. Disponible 7j/7.",
    "about": "Michael Durand est un plombier expérimenté basé à Lyon. Avec plusieurs années d'expérience, il offre des services fiables en plomberie générale et intervient rapidement pour vos urgences.",
    "website": "https://michaelplombier.fr",
    "latitude": 45.75,
    "longitude": 4.85
  },
  {
    "id": 2,
    "name": "Sophie Martin",
    "specialty": "Menuisier",
    "category": "Construction",
    "city": "Grenoble",
    "rating": 4,
    "description": "Menuiserie sur mesure et rénovation bois.",
    "about": "Sophie Martin est menuisier à Grenoble, spécialisée dans la fabrication sur mesure et la rénovation de structures en bois. Elle apporte soin et qualité à chaque projet.",
    "website": "",
    "latitude": 45.188529,
    "longitude": 5.724524
  },
  {
    "id": 3,
    "name": "Thomas Lefevre",
    "specialty": "Électricien",
    "category": "Construction",
    "city": "Saint-Étienne",
    "rating": 4,
    "description": "Installation électrique et mise aux normes.",
    "about": "Thomas Lefevre est électricien qualifié à Saint-Étienne. Il assure l'installation électrique complète et la mise aux normes pour garantir sécurité et performance.",
    "website": "https://lefevreelec.fr",
    "latitude": 45.4397,
    "longitude": 4.3872
  },
  {
    "id": 4,
    "name": "Laurent Fabre",
    "specialty": "Peintre",
    "category": "Construction",
    "city": "Lyon",
    "rating": 4,
    "description": "Peinture intérieure et extérieure, finitions soignées.",
    "about": "Laurent Fabre, peintre à Lyon, est reconnu pour ses finitions soignées en peinture intérieure et extérieure. Il utilise des techniques adaptées pour un rendu professionnel.",
    "website": "https://fabre-peinture.fr",
    "latitude": 45.75,
    "longitude": 4.85
  },
  {
    "id": 5,
    "name": "Emma Dubois",
    "specialty": "Couvreur",
    "category": "Construction",
    "city": "Valence",
    "rating": 4,
    "description": "Expert en toiture traditionnelle et isolations.",
    "about": "Emma Dubois est couvreur à Valence, experte en toitures traditionnelles et en solutions d'isolation. Elle garantit des interventions durables et efficaces.",
    "website": "",
    "latitude": 44.9333,
    "longitude": 4.8924
  },
  {
    "id": 6,
    "name": "Jean-Paul Leroy",
    "specialty": "Maçon",
    "category": "Construction",
    "city": "Annecy",
    "rating": 4,
    "description": "Maçonnerie traditionnelle et rénovation.",
    "about": "Jean-Paul Leroy, maçon à Annecy, réalise des travaux de maçonnerie traditionnelle et de rénovation avec précision et respect des normes.",
    "website": "",
    "latitude": 45.8992,
    "longitude": 6.1294
  },
  {
    "id": 7,
    "name": "Claire Fontaine",
    "specialty": "Plâtrier",
    "category": "Construction",
    "city": "Chambéry",
    "rating": 4,
    "description": "Plâtrerie et isolation thermique.",
    "about": "Claire Fontaine est plâtrier à Chambéry, spécialisée dans les travaux de plâtrerie et l'isolation thermique pour améliorer le confort de votre habitat.",
    "website": "https://fontaineplatrerie.fr",
    "latitude": 45.5646,
    "longitude": 5.9213
  },
  {
    "id": 8,
    "name": "Marc Lefebvre",
    "specialty": "Charpentier",
    "category": "Construction",
    "city": "Grenoble",
    "rating": 4,
    "description": "Charpente bois traditionnelle et moderne.",
    "about": "Marc Lefebvre est charpentier à Grenoble, expert en charpentes en bois traditionnelles et modernes, apportant solidité et esthétique à vos constructions.",
    "website": "",
    "latitude": 45.188529,
    "longitude": 5.724524
  },
  {
    "id": 9,
    "name": "Marie Dupuis",
    "specialty": "Boulanger",
    "category": "Alimentaire",
    "city": "Lyon",
    "rating": 4,
    "description": "Boulangerie artisanale avec produits bio.",
    "about": "Marie Dupuis est boulangère artisanale à Lyon, proposant des produits bio de qualité fabriqués avec soin pour le plaisir de tous.",
    "website": "https://boulangeriedupuis.fr",
    "latitude": 45.75,
    "longitude": 4.85
  },
  {
    "id": 10,
    "name": "Paul Michel",
    "specialty": "Boucher",
    "category": "Alimentaire",
    "city": "Chambéry",
    "rating": 4,
    "description": "Viandes de qualité et préparation maison.",
    "about": "Paul Michel est boucher à Chambéry, reconnu pour ses viandes de qualité et ses préparations artisanales maison.",
    "website": "",
    "latitude": 45.5646,
    "longitude": 5.9213
  },
  {
    "id": 11,
    "name": "Sabrina Noël",
    "specialty": "Pâtissier",
    "category": "Alimentaire",
    "city": "Grenoble",
    "rating": 4,
    "description": "Pâtisseries fines et créations originales.",
    "about": "Sabrina Noël, pâtissière à Grenoble, propose des pâtisseries fines et des créations originales, alliant tradition et créativité.",
    "website": "https://noelboulangerie.fr",
    "latitude": 45.188529,
    "longitude": 5.724524
  },
  {
    "id": 12,
    "name": "Alexandre Blanc",
    "specialty": "Poissonnier",
    "category": "Alimentaire",
    "city": "Saint-Étienne",
    "rating": 4,
    "description": "Poissons frais et fruits de mer.",
    "about": "Alexandre Blanc est poissonnier à Saint-Étienne, fournissant des poissons frais et des fruits de mer de qualité pour ses clients.",
    "website": "",
    "latitude": 45.4397,
    "longitude": 4.3872
  },
  {
    "id": 13,
    "name": "Céline Laurent",
    "specialty": "Charcutier",
    "category": "Alimentaire",
    "city": "Valence",
    "rating": 4,
    "description": "Charcuteries artisanales et spécialités régionales.",
    "about": "Céline Laurent, charcutière à Valence, propose des charcuteries artisanales et des spécialités régionales authentiques.",
    "website": "https://boulangerielaurent.fr",
    "latitude": 44.9333,
    "longitude": 4.8924
  },
  {
    "id": 14,
    "name": "Nicolas Girard",
    "specialty": "Fromager",
    "category": "Alimentaire",
    "city": "Grenoble",
    "rating": 4,
    "description": "Fromages affinés et conseils gourmands.",
    "about": "Nicolas Girard est fromager à Grenoble, expert en fromages affinés et en conseils gourmands adaptés à vos goûts.",
    "website": "",
    "latitude": 45.188529,
    "longitude": 5.724524
  },
  {
    "id": 15,
    "name": "Isabelle Moreau",
    "specialty": "Traiteur",
    "category": "Alimentaire",
    "city": "Lyon",
    "rating": 4,
    "description": "Traiteur événementiel et cuisine traditionnelle.",
    "about": "Isabelle Moreau est traiteur à Lyon, spécialisée en cuisine traditionnelle et en services événementiels de qualité.",
    "website": "https://traiteurmoreau.fr",
    "latitude": 45.75,
    "longitude": 4.85
  },
  {
    "id": 16,
    "name": "Julien Bernard",
    "specialty": "Caviste",
    "category": "Alimentaire",
    "city": "Valence",
    "rating": 4,
    "description": "Vins fins et conseils personnalisés.",
    "about": "Julien Bernard est caviste à Valence, proposant une sélection de vins fins accompagnée de conseils personnalisés.",
    "website": "",
    "latitude": 44.9333,
    "longitude": 4.8924
  },
  {
    "id": 17,
    "name": "Laura Simon",
    "specialty": "Coiffeur",
    "category": "Beauté",
    "city": "Lyon",
    "rating": 4,
    "description": "Salon moderne avec prestations sur-mesure.",
    "about": "Laura Simon est coiffeuse à Lyon, offrant des prestations sur-mesure dans un salon moderne et convivial.",
    "website": "",
    "latitude": 45.75,
    "longitude": 4.85
  },
  {
    "id": 18,
    "name": "Julie Petit",
    "specialty": "Esthéticienne",
    "category": "Beauté",
    "city": "Annecy",
    "rating": 4,
    "description": "Soins visage et corps, épilation.",
    "about": "Julie Petit est esthéticienne à Annecy, spécialisée dans les soins visage, corps et épilation pour votre bien-être.",
    "website": "",
    "latitude": 45.8992,
    "longitude": 6.1294
  },
  {
    "id": 19,
    "name": "Éric Dubois",
    "specialty": "Mécanicien",
    "category": "Fabrication",
    "city": "Saint-Étienne",
    "rating": 4,
    "description": "Réparation et entretien automobile.",
    "about": "Éric Dubois est mécanicien à Saint-Étienne, assurant réparation et entretien automobile avec expertise et rapidité.",
    "website": "https://garage-dubois.fr",
    "latitude": 45.4397,
    "longitude": 4.3872
  },
  {
    "id": 20,
    "name": "Catherine Morel",
    "specialty": "Jardinier",
    "category": "Construction",
    "city": "Grenoble",
    "rating": 4,
    "description": "Entretien jardins et aménagements paysagers.",
    "about": "Catherine Morel est jardinière à Grenoble, experte en entretien de jardins et aménagements paysagers pour sublimer vos espaces verts.",
    "website": "",
    "latitude": 45.188529,
    "longitude": 5.724524
  },
  {
    "id": 21,
    "name": "Hugo Lambert",
    "specialty": "Soudeur",
    "category": "Fabrication",
    "city": "Lyon",
    "rating": 5,
    "description": "Soudeur TIG/MIG pour structures industrielles.",
    "about": "Hugo Lambert est soudeur à Lyon, spécialiste en TIG/MIG, intervenant sur des structures métalliques complexes pour l'industrie et le bâtiment.",
    "website": "https://soudure-lambert.fr",
    "latitude": 45.76,
    "longitude": 4.84
  },
  {
    "id": 22,
    "name": "Camille Roche",
    "specialty": "Mécanicien industriel",
    "category": "Fabrication",
    "city": "Saint-Étienne",
    "rating": 4,
    "description": "Maintenance et installation de machines industrielles.",
    "about": "Camille Roche est mécanicien industriel à Saint-Étienne, spécialisée dans la maintenance préventive et corrective des équipements en usine.",
    "website": "",
    "latitude": 45.44,
    "longitude": 4.39
  },
  {
    "id": 23,
    "name": "Julien Navarro",
    "specialty": "Chaudronnier",
    "category": "Fabrication",
    "city": "Grenoble",
    "rating": 5,
    "description": "Conception et assemblage de pièces métalliques.",
    "about": "Julien Navarro est chaudronnier expérimenté à Grenoble, réalisant des pièces sur mesure pour le secteur industriel et agricole.",
    "website": "",
    "latitude": 45.19,
    "longitude": 5.72
  },
  {
    "id": 24,
    "name": "Anaïs Petit",
    "specialty": "Menuisier industriel",
    "category": "Fabrication",
    "city": "Valence",
    "rating": 4,
    "description": "Production en série de menuiseries sur plan.",
    "about": "Anaïs Petit travaille dans la menuiserie industrielle à Valence, spécialisée dans la fabrication en série de portes, fenêtres et cloisons techniques.",
    "website": "https://menuiserie-petit.fr",
    "latitude": 44.93,
    "longitude": 4.89
  },
  {
    "id": 25,
    "name": "Mathieu Durieux",
    "specialty": "Mécanicien de précision",
    "category": "Fabrication",
    "city": "Annecy",
    "rating": 5,
    "description": "Usinage de pièces mécaniques à haute précision.",
    "about": "Mathieu Durieux est mécanicien de précision à Annecy, spécialisé dans le tournage et le fraisage pour pièces complexes à tolérance stricte.",
    "website": "",
    "latitude": 45.9,
    "longitude": 6.13
  }
]
